[
    {
        "name": "DREAM AFRO SHOP MANNHEIM",
        "city": "Mannheim",
        "zipCode": "68169",
        "coords": "{lat: 49.4975732, lng: 8.4711448}",
        "infos": "`DREAM AFRO SHOP MANNHEIM, Mittelstraße 13, 68169 Mannheim <br> Phone: 01521 4291789`"
    },
    {
        "name": "Afro Shop Mannheim Style by Jimmy Beauty & Barber Shop",
        "city": "Mannheim",
        "zipCode": "68161",
        "coords": "{lat: 49.4827566, lng: 8.4731227}",
        "infos": "`Afro Shop Mannheim Style by Jimmy Beauty & Barber Shop, <br> Kaiserring, 68161 Mannheim <br> Phone: 0176 43657296`"
    },
    {
        "name": "Orange Friseuren Extension Make-up & Beautyshop",
        "city": "Mannheim",
        "zipCode": "68161",
        "coords": "{lat: , lng: }",
        "infos": "`Orange Friseuren Extension Make-up & Beautyshop, <br> S2 11, 68161 Mannheim <br> Phone: 0621 1819436`"
    },
    {
        "name": "SJ Asian Afro Store Mannheim",
        "city": "Mannheim",
        "zipCode": "68161",
        "coords": "{lat: , lng: }",
        "infos": "`SJ Asian Afro Store Mannheim, S1 11, 68161 Mannheim <br> Phone: 0621 86243212`"
    },
    {
        "name": "Mother Indias Black&White Afro-Kosmetik-Store",
        "city": "Mannheim",
        "zipCode": "68161",
        "coords": "{lat: , lng: }",
        "infos": "`Mother Indias Black&White Afro-Kosmetik-Store, <br> T2 20, 68161 Mannheim <br> Phone: 0621 43769300`"
    },
    {
        "name": "Charles Barber Shop",
        "city": "Mannheim",
        "zipCode": "68161",
        "coords": "{lat: , lng: }",
        "infos": "`Charles Barber Shop, <br> T3 23, 68161 Mannheim <br> Phone: 0621 17298723`"
    },
    {
        "name": "Odeal Beauty Shop",
        "city": "Mannheim",
        "zipCode": "68161",
        "coords": "{lat: , lng: }",
        "infos": "`Odeal Beauty Shop, <br> T3 6, 68161 Mannheim <br> Phone: 0621 18150563`"
    },
    {
        "name": "Afro Markt Jubin/Kotoko",
        "city": "Mannheim",
        "zipCode": "68161",
        "coords": "{lat: , lng: }",
        "infos": "`Afro Markt Jubin/Kotoko, <br> N3 18, 68161 Mannheim <br> Phone: 0621 1225762`"
    },
    {
        "name": "SJ Asian Afro Store Ludwigshafen",
        "city": "Ludwigshafen",
        "zipCode": "67059",
        "coords": "{lat: 49.4831642, lng: 8.4431491}",
        "infos": "`SJ Asian Afro Store Ludwigshafen, <br> Schulstraße 7, 67059 Ludwigshafen am Rheim <br> Phone: 0621 54544276`"
    },
    {
        "name": "Afro Shop Sol Beauty Salon",
        "city": "Ludwigshafen",
        "zipCode": "67061",
        "coords": "{lat: 49.4738767, lng: 8.4423571}",
        "infos": "`Afro Shop Sol Beauty Salon, <br> Rottstraße 95, 67061 Ludwigshafen am Rhein <br> Phone: 01521 7662995`"
    },
    {
        "name": "Style O'Uno",
        "city": "Karlsruhe",
        "zipCode": "76131",
        "coords": "{lat: 49.0096087, lng: 8.4104085}",
        "infos": "`Style O'Uno, <br> Kaiserstraße 16, 76131 Karlsruhe <br> Phone: 0721 6237947`"
    },
    {
        "name": "Chez Bariatou",
        "city": "Karlsruhe",
        "zipCode": "76185",
        "coords": "{lat: 49.01098, lng: 8.3688563}",
        "infos": "`Chez Bariatou, <br> Kaiserallee 113, 76185 Karlsruhe <br> Phone: 0721 7228353`"
    },
    {
        "name": "Afro Shop Karlsruhe / Barber/Braids/Rasta/Dreadlocks/Hair Cut One Love",
        "city": "Karlsruhe",
        "zipCode": "76137",
        "coords": "{lat: 48.9955686, lng: 8.3937766}",
        "infos": "`Afro Shop Karlsruhe / Barber/Braids/Rasta/Dreadlocks/Hair Cut One Love, <br> Karlstraße 125, 76137 Karlsruhe <br> Phone: 0721 46465422`"
    },
    {
        "name": "African Shop Inh. Rita Osayande",
        "city": "Karlsruhe",
        "zipCode": "76133",
        "coords": "{lat: 49.0060668, lng: 8.4062725}",
        "infos": "`African Shop Inh. Rita Osayande, <br> Kreuzstraße 35, 76133 Karlsruhe <br> Phone: 0721 358406`"
    },
    {
        "name": "Harriets Afro Intensive Hair Care",
        "city": "Karlsruhe",
        "zipCode": "76137",
        "coords": "{lat: 49.0013542, lng: 8.3926952}",
        "infos": "`Harriets Afro Intensive Hair Care, <br> Jollystraße 13, 76137 Karlsruhe <br> Phone: 0721 22267`"
    },
    {
        "name": "Paradise Fashion Hair & Beauty",
        "city": "Karlsruhe",
        "zipCode": "76133",
        "coords": "{lat: 49.009361, lng: 8.4007757}",
        "infos": "`Paradise Fashion Hair & Beauty, <br> Ritterstraße 10, 76133 Karlsruhe <br> Phone: 0721 1832808`"
    },
    {
        "name": "Afro Multi Purpose Call Shop",
        "city": "Karlsruhe",
        "zipCode": "76185",
        "coords": "{lat: 49.0118863, lng: 8.3572957}",
        "infos": "`Afro Multi Purpose Call Shop, <br> Hardtstraße 17, 76185 Karlsruhe <br> Phone: 0721 60909422`"
    },
    {
        "name": "INSIDE AFRIKA. Afro shop",
        "city": "Karlsruhe",
        "zipCode": "76131",
        "coords": "{lat: 49.00838, lng: 8.4175044}",
        "infos": "`INSIDE AFRIKA. Afro shop, <br> Gottesauer Straße 3, 76131 Karlsruhe <br> Phone: 0721 59742117`"
    },
    {
        "name": "Afro Sisters Hairstyle & Makeup",
        "city": "Karlsruhe",
        "zipCode": "76133",
        "coords": "{lat: 49.0070811, lng: 8.3949841}",
        "infos": "`Afro Sisters Hairstyle & Makeup, <br> Karlstraße 33, 76133 Karlsruhe <br> Phone: 0721 29057`"
    },
    {
        "name": "Georgette Manekeu",
        "city": "Karlsruhe",
        "zipCode": "76227",
        "coords": "{lat: 48.9998407, lng: 8.4683356}",
        "infos": "`Georgette Manekeu, <br> Bienleinstorstraße 3, 76227 Karlsruhe <br> Phone: 0721 66982118`"
    },
    {
        "name": "Afro-Shop",
        "city": "Stuttgart",
        "zipCode": "70197",
        "coords": "{lat: 48.774343, lng: 9.1562726}",
        "infos": "`Afro-Shop, <br> Schwabstraße 50, 70197 Stuttgart <br> Phone: 01575 4138536`"
    },
    {
        "name": "Nancy's AFRO",
        "city": "Stuttgart",
        "zipCode": "70178",
        "coords": "{lat: 49.0070811, lng: 8.3949841}",
        "infos": "`Nancy's AFRO, <br> Hauptstätter Straße 68, 70178 Stuttgart <br> Phone: 0711 9641202`"
    },
    {
        "name": "Lina Afro Hair Braiding",
        "city": "Stuttgart",
        "zipCode": "70193",
        "coords": "{lat: 48.7756124, lng: 9.1560967}",
        "infos": "`Lina Afro Hair Braiding, <br> Schwabstraße 60, 70193 Stuttgart <br> Phone: 01573 6033917`"
    },
    {
        "name": "Sis Jud Afro Hair Studio",
        "city": "Stuttgart",
        "zipCode": "70178",
        "coords": "{lat: 48.7859593, lng: 9.1937824}",
        "infos": "`Sis Jud Afro Hair Studio, <br> Werastraße 93, 70190 Stuttgart <br> Phone: 0711 67418797`"
    },
    {
        "name": "Afroshop Moko",
        "city": "Stuttgart",
        "zipCode": "70190",
        "coords": "{lat: 48.7870074, lng: 9.193297}",
        "infos": "`Afroshop Moko, <br> Staffelstraße 5, 70190 Stuttgart <br> Phone: 0711 2200680`"
    },
    {
        "name": "Afro American Cosmetic Shop",
        "city": "Stuttgart",
        "zipCode": "70176",
        "coords": "{lat: 48.7746981, lng: 9.1654562}",
        "infos": "`Afro American Cosmetic Shop, <br> Silberburgstraße 138, 70716 Stuttgart <br> Phone: 0711 6150479`"
    },
    {
        "name": "Multi Beauty Center ( Afro Shop)",
        "city": "Stuttgart",
        "zipCode": "70190",
        "coords": "{lat: 48.7757182, lng: 9.1655466}",
        "infos": "`Multi Beauty Center ( Afro Shop), <br> Silberburgstraße 129 A, 70176 Stuttgart <br> Phone: 0711 65864010`"
    },
    {
        "name": "GT World Of Beauty GmbH Stuttgart",
        "city": "Stuttgart",
        "zipCode": "70178",
        "coords": "{lat: 48.7657964, lng: 9.1688084}",
        "infos": "`GT World Of Beauty GmbH Stuttgart, <br> Tübinger Straße 84, 70178 Stuttgart <br> Phone: 0711 246215`"
    },
    {
        "name": "Papa's Afroshop Im- u. Export",
        "city": "Stuttgart",
        "zipCode": "70499",
        "coords": "{lat: 48.8144751, lng: 9.1135115}",
        "infos": "`Papa's Afroshop Im- u. Export, <br> Löwen-Markt 5, 70499 Stuttgart <br> Phone: 0711 8875567`"
    },
    {
        "name": "Todd International Hair Salon",
        "city": "Stuttgart",
        "zipCode": "70182",
        "coords": "{lat: 48.773156, lng: 9.1824219}",
        "infos": "`Todd International Hair Salon, <br> Pfarrstraße 19, 70182 Stuttgart <br> Phone: 01525 4258538`"
    },
    {
        "name": "Afrika Bella",
        "city": "Stuttgart",
        "zipCode": "70376",
        "coords": "{lat: 48.8078798, lng: 9.2105182}",
        "infos": "`Afrika Bella, <br> Brückenstraße 35, 70376 Stuttgart <br> Phone: 0711 34133110`"
    },
    {
        "name": "AFRO FRESH oHG",
        "city": "Stuttgart",
        "zipCode": "70437",
        "coords": "{lat: 48.8317221, lng: 9.1905335}",
        "infos": "`AFRO FRESH oHG, <br> Haldenrainstraße 124, 70437 Stuttgart <br> Phone: 0711 50453385`"
    },
    {
        "name": "Divine Design African Shop",
        "city": "Stuttgart",
        "zipCode": "70178",
        "coords": "{lat: 48.7635312, lng: 9.1658761}",
        "infos": "`Divine Design African Shop, <br> Tannenstraße, 70178 Stuttgart <br> Phone: 0711 241303`"
    },
    {
        "name": "Afroshop- Mononi-modaya",
        "city": "Pforzheim",
        "zipCode": "75175",
        "coords": "{lat: 48.887793, lng: 8.7053434}",
        "infos": "`Afroshop- Mononi-modaya, <br> Schelmenturmstraße 4, 75175 Pforzheim <br> Phone: 07231 418805`"
    },
    {
        "name": "Afro Store Tübingen",
        "city": "Tübingen",
        "zipCode": "72072",
        "coords": "{lat: 48.5177349, lng: 9.0598754}",
        "infos": "`Afro Store Tübingen, <br> Friedrichstraße 11, 72072 Tübingen <br> Phone: 07071 365545`"
    },
    {
        "name": "Afro Indien Store",
        "city": "Tübingen",
        "zipCode": "72074",
        "coords": "{lat: 48.5194155, lng: 9.0599195}",
        "infos": "`Afro Indien Store, <br> Gartenstraße 9/1, 72074 Tübingen <br> Phone: 07071 8895781`"
    },
    {
        "name": "Daimina Zinaria Afroshop",
        "city": "Ulm",
        "zipCode": "89073",
        "coords": "{lat: 48.4000897, lng: 9.9876261}",
        "infos": "`Daimina Zinaria Afroshop, <br> Wengengasse 18, 89073 Ulm <br> Phone: 0731 9214849`"
    },
    {
        "name": "Afro-Collection",
        "city": "Ulm",
        "zipCode": "89073",
        "coords": "{lat: 48.4002518, lng: 9.993289}",
        "infos": "`Afro-Collection, <br> Herrenkellergasse 22, 89073 Ulm <br> Phone: 0731 67664`"
    },
    {
        "name": "Marthely Afro Shop°",
        "city": "Augsburg",
        "zipCode": "86154",
        "coords": "{lat: 48.3867407, lng: 10.8802803}",
        "infos": "`Marthely Afro Shop°, <br> Donauwörther Straße 79, 86154 Augsburg <br> Phone: 0821 54387353`"
    },
    {
        "name": "Afro American Hair & Cosmetic Shop",
        "city": "Augsburg",
        "zipCode": "86150",
        "coords": "{lat: 48.3660752, lng: 10.8819237}",
        "infos": "`Afro American Hair & Cosmetic Shop, <br> Pferseer Straße 10, 86150 Augsburg <br> Phone: 0821 44981786`"
    },
    {
        "name": "AFRO - COLLECTION",
        "city": "Augsburg",
        "zipCode": "86150",
        "coords": "{lat: 48.3651079, lng: 10.888507}",
        "infos": "`AFRO - COLLECTION, <br> Halderstraße 29, 86150 Augsburg <br> Phone: 0821 153812`"
    },
    {
        "name": "Afro Shop - Chez Nicole",
        "city": "Munich",
        "zipCode": "81677",
        "coords": "{lat: 48.1371553, lng: 11.6156806}",
        "infos": "`Afro Shop - Chez Nicole, <br> Einsteinstraße 163, 81677 Munich <br> Phone: 089 41189816`"
    },
    {
        "name": "Afrokings & Ebony Beauty",
        "city": "Munich",
        "zipCode": "80336",
        "coords": "{lat: 48.1386773, lng: 11.5514202}",
        "infos": "`Afrokings & Ebony Beauty, <br> Hermann-Lingg-Straße 2, 80336 Munich <br> Phone: 089 21949356`"
    },
    {
        "name": "Afro Shop",
        "city": "Munich",
        "zipCode": "80336",
        "coords": "{lat: 48.1383509, lng: 11.5587761}",
        "infos": "`Afro Shop, <br> Goethe Center, Goethe Straße 7, 80336 Munich <br> Phone: 089 54506753`"
    },
    {
        "name": "Sandra Afro Shop",
        "city": "Munich",
        "zipCode": "80687",
        "coords": "{lat: 48.1412119, lng: 11.5029238}",
        "infos": "`Sandra Afro Shop, <br> Fürstenrieder Straße 14, 80687 Munich <br> Phone: 0173 2635739`"
    },
    {
        "name": "AFROSHOP TESTEC BEAUTY WORLD",
        "city": "Munich",
        "zipCode": "80336",
        "coords": "{lat: 48.1364614, lng: 11.5596857}",
        "infos": "`AFROSHOP TESTEC BEAUTY WORLD, <br> Landwehrstraße 34, 80336 Munich <br> Phone: 089 62246601`"
    },
    {
        "name": "Kaschmir Basar",
        "city": "Munich",
        "zipCode": "80336",
        "coords": "{lat: 48.1364547, lng: 11.5546651}",
        "infos": "`Kaschmir Basar, <br> Landwehrstraße 64, 80336 Munich <br> Phone: 089 54547894`"
    },
    {
        "name": "Behold Afroshop München",
        "city": "Munich",
        "zipCode": "80336",
        "coords": "{lat: 48.1364896, lng: 11.5535915}",
        "infos": "`Behold Afroshop München, <br> Landwehrstraße 72, 80336 Munich <br> Phone: 089 23153113`"
    },
    {
        "name": "Casa Tropicana Afro Brasil Shop",
        "city": "Munich",
        "zipCode": "80339",
        "coords": "{lat: 48.1382373, lng: 11.5456347}",
        "infos": "`Casa Tropicana Afro Brasil Shop, <br> Holzapfelstraße 8, 80339 Munich <br> Phone: 089 45219714`"
    },
    {
        "name": "Afro Look Design",
        "city": "Munich",
        "zipCode": "80339",
        "coords": "{lat: 48.138392, lng: 11.5449765}",
        "infos": "`Afro Look Design, <br> Westendstraße 45, 80339 Munich <br> Phone: 0175 1980187`"
    },
    {
        "name": "Afro Nice Price",
        "city": "Munich",
        "zipCode": "80336",
        "coords": "{lat: 48.1351443, lng: 11.555972}",
        "infos": "`Afro Nice Price, <br> Paul-Heyse-Straße 37, 80336 Munich <br> Phone: 089 37985674`"
    },
    {
        "name": "Afro Star Shop",
        "city": "Munich",
        "zipCode": "81541",
        "coords": "{lat: 48.1184746, lng: 11.5815325}",
        "infos": "`Afro Star Shop, <br> Edelweißstraße 10, 81541 Munich <br> Phone: 089 69375682`"
    },
    {
        "name": "Black & White Afro-Shop",
        "city": "Munich",
        "zipCode": "80637",
        "coords": "{lat: 48.1598563, lng: 11.5465444}",
        "infos": "`Black & White Afro-Shop, <br> Dachauer Straße 185, 80637 Munich <br> Phone: 089 155055`"
    },
    {
        "name": "ETHNIC HAIR & BEAUTY SALON",
        "city": "Munich",
        "zipCode": "80805",
        "coords": "{lat: 48.1686998, lng: 11.592801}",
        "infos": "`ETHNIC HAIR & BEAUTY SALON, <br> Ungerer Straße 80, 80805 Munich <br> Phone: 089 74039694`"
    },
    {
        "name": "Haarstudio Barbara Holmes GmbH",
        "city": "Munich",
        "zipCode": "80333",
        "coords": "{lat: 48.1486018, lng: 11.5627705}",
        "infos": "`Haarstudio Barbara Holmes GmbH, <br> Augustenstraße 58, 80333 Munich <br> Phone: 089 598135`"
    },
    {
        "name": "Ebone Hairshop",
        "city": "Munich",
        "zipCode": "80802",
        "coords": "{lat: 48.1665, lng: 11.5903}",
        "infos": "`Ebone Hairshop, <br> Leopolstraße 122A, 80802 Munich <br> Phone: 089 345613`"
    },
    {
        "name": "Afrokunst",
        "city": "Munich",
        "zipCode": "80798",
        "coords": "{lat: 48.1530415, lng: 11.5656466}",
        "infos": "`Afrokunst, <br> Augustenstraße 104, 80798 Munich <br> Phone: 089 562873`"
    },
    {
        "name": "L. Chanto",
        "city": "Munich",
        "zipCode": "81371",
        "coords": "{lat: 48.1665, lng: 11.5903}",
        "infos": "`L. Chanto, <br> Brudermühlstraße 3, 81371 Munich <br> Phone: 089 345613`"
    },
    {
        "name": "Kaiser Afroculture",
        "city": "Regensburg",
        "zipCode": "93047",
        "coords": "{lat: 49.0168643, lng: 12.0951703}",
        "infos": "`Kaiser Afroculture, <br> Obermünsterstraße 3, 93047 Regensburg <br> Phone: 0941 50275808`"
    },
    {
        "name": "Laas: Leah's American African Afro Shop",
        "city": "Regensburg",
        "zipCode": "93055",
        "coords": "{lat: 49.0174669, lng: 12.1124053}",
        "infos": "`Laas: Leah's American African Afro Shop, <br> Weißenburgstraße 5, 93055 Regensburg <br> Phone: 01573 2527449`"
    },
    {
        "name": "Afro Shop",
        "city": "Regensburg",
        "zipCode": "93047",
        "coords": "{lat: 49.0160165, lng: 12.1008603}",
        "infos": "`Afro Shop, <br> Am Königshof 2, 93047 Regensburg <br> Phone: 0941 89966549`"
    },
    {
        "name": "Afro Vision Oranye",
        "city": "Regensburg",
        "zipCode": "93047",
        "coords": "{lat: 49.0169156, lng: 12.0962386}",
        "infos": "`Afro Vision Oranye, <br> Malergasse 14, 93047 Regensburg <br> Phone: 0941 5047681`"
    },
    {
        "name": "Unique Afro Shop Landshut",
        "city": "Landshut",
        "zipCode": "84034",
        "coords": "{lat: 48.5449433, lng: 12.1433138}",
        "infos": "`Unique Afro Shop Landshut, <br> Seligenthaler Straße 27, 84034 Landshut <br> Phone: 0871 3192311`"
    },
    {
        "name": "Afro Friseur Freising",
        "city": "Freising",
        "zipCode": "85356",
        "coords": "{lat: 48.3924, lng: 11.7569}",
        "infos": "`Afro Friseur Freising, <br> Königsfelstraße 11, 85356 Freising <br> Phone: 0176 72238844`"
    },
    {
        "name": "Joana Afro Beauty Salon",
        "city": "Freising",
        "zipCode": "85356",
        "coords": "{lat: 48.3924, lng: 11.7569}",
        "infos": "`Joana Afro Beauty Salon, <br> Königsfelstraße 11, 85356 Freising <br> Phone: 0176 72238844`"
    },
    {
        "name": "Jambo Afro Shop",
        "city": "Ingolstadt",
        "zipCode": "85049",
        "coords": "{lat: 48.7657038, lng: 11.4291539}",
        "infos": "`Jambo Afro Shop, <br> Beckerstraße 21/2, 85049 Ingolstadt`"
    },
    {
        "name": "Asmara Afroshop",
        "city": "Ingolstadt",
        "zipCode": "85051",
        "coords": "{lat: 48.7406093, lng: 11.437374}",
        "infos": "`Asmara Afroshop, <br> Elisabethstraße 3, 85051 Ingolstadt <br> Phone: 0841 99399`"
    },
    {
        "name": "Vivis Afro Shop",
        "city": "Kempten",
        "zipCode": "87435",
        "coords": "{lat: 47.7249214, lng: 10.3212087}",
        "infos": "`Vivis Afro Shop, <br> Bäckerstraße 16, 87435 Kempten (Allgäu) <br> Phone: 01638030075`"
    },
    {
        "name": "Jenny's Afro Shop",
        "city": "Memmingen",
        "zipCode": "87700",
        "coords": "{lat: 47.9859226, lng: 10.1838313}",
        "infos": "`Jenny's Afro Shop, <br> Hinter dem Salzstadel 7, 87700 Memmingen <br> Phone: 01639862079`"
    },
    {
        "name": "Patis Afro Shop Kempten/Weidach/Durach",
        "city": "Durach",
        "zipCode": "87471",
        "coords": "{lat: 47.6948247, lng: 10.3321378}",
        "infos": "`Patis Afro Shop, <br> Duracher Straße 11, 87471 Durach <br> Phone: 01573 3246937`"
    },
    {
        "name": "Afro American Barber Shop",
        "city": "Nuremberg",
        "zipCode": "90459",
        "coords": "{lat: 49.4354211, lng: 11.0841414}",
        "infos": "`Afro American Barber Shop, <br> Pillenreuther Straße 10, 90459 Nuremberg <br> Phone: 0173 5854392`"
    }, 
    {
        "name": "GT World Of Beauty GmbH Nürnberg",
        "city": "Nuremberg",
        "zipCode": "90459",
        "coords": "{lat: 49.4432023, lng: 11.0812929}",
        "infos": "`GT World Of Beauty GmbH Nürnberg, <br> Pillenreuther Straße 7, 90459 Nuremberg <br> Phone: 0911 4501541`"
    },
    {
        "name": "Hairstylistin Sarah",
        "city": "Nuremberg",
        "zipCode": "90459",
        "coords": "{lat: 49.4426311, lng: 11.0789376}",
        "infos": "`Hairstylistin Sarah, <br> Karl-Bröger-Straße 21, 90459 Nuremberg <br> Phone: 0176 320 55393`"
    },
    {
        "name": "das Rastaforum",
        "city": "Nuremberg",
        "zipCode": "90443",
        "coords": "{lat: 49.4298308, lng: 11.0656303}",
        "infos": "`das Rastaforum, <br> Gibitzenhofstraße 166, 90443 Nuremberg <br> Phone: 0178 5329323`"
    },
    {
        "name": "Royal AfroCenter",
        "city": "Fürth",
        "zipCode": "90762",
        "coords": "{lat: 49.469845, lng: 11.0038208}",
        "infos": "`Royal AfroCenter, <br> Lange Straße 37, 90762 Fürth <br> Phone: 0911 705506`"
    },
    {
        "name": "Afro-Shop Aschaffenburg - African Pride & Beauty Palace",
        "city": "Aschaffenburg",
        "zipCode": "63739",
        "coords": "{lat: 49.9745467, lng: 9.1464923}",
        "infos": "`Afro-Shop Aschaffenburg - African Pride & Beauty Palace, <br> Landingstraße 8, 63739 Aschaffenburg <br> Phone: 0176 43481575`"
    },
    {
        "name": "Ando´s Afro & Rasta Shop e.K.",
        "city": "Bamberg",
        "zipCode": "96052",
        "coords": "{lat: 49.8969661, lng: 10.8954037}",
        "infos": "`Ando´s Afro & Rasta Shop e.K., <br> Obere Königstraße 53, 96052 Bamberg <br> Phone: 0951 1869470`"
    },
    {
        "name": "Rastazoepfe Aschaffenburg - African Feeling & Hairstyle, Amie Sonko",
        "city": "Mainaschaff",
        "zipCode": "63814",
        "coords": "{lat: 49.9841222, lng: 9.0711023}",
        "infos": "`Rastazoepfe Aschaffenburg - <br> African Feeling & Hairstyle, Amie Sonko, <br> Mainparkstraße 2, 63814 Mainaschaff <br> Phone: 0175 8786591`"
    },
    {
        "name": "Paradise Afro Shop",
        "city": "Aschaffenburg",
        "zipCode": "63739",
        "coords": "{lat: 49.9787478, lng: 9.149545}",
        "infos": "`Paradise Afro Shop, <br> Elisenstraße 6, 63739 Aschaffenburg <br> Phone: 06021 4941837`"
    },
    {
        "name": "AFRO-ASIA SHOP",
        "city": "Hanau",
        "zipCode": "63450",
        "coords": "{lat: 50.1369196, lng: 8.9141929}",
        "infos": "`AFRO-ASIA SHOP, <br> Hospitalstraße 18, 63450 Hanau <br> Phone: 06181 4348730`"
    },
    {
        "name": "Dominic's Barber Shop",
        "city": "Hanau",
        "zipCode": "63450",
        "coords": "{lat: 50.1344195, lng: 8.9116703}",
        "infos": "`Dominic's Barber Shop, <br> Herrnstraße 27, 63450 Hanau <br> Phone: 06181 5080079`"
    },
    {
        "name": "Salem's Afro Hair Salon",
        "city": "Frankfurt am Main",
        "zipCode": "60327",
        "coords": "{lat: 50.1018694, lng: 8.660285}",
        "infos": "`Salem's Afro Hair Salon, <br> Gutleutstraße 155, 60327 Frankfurt am Main <br> Phone: 069 677777060`"
    },
    {
        "name": "RIGBEAUTY Hair & Cosmetics",
        "city": "Frankfurt am Main",
        "zipCode": "60329",
        "coords": "{lat: 50.1047111, lng: 8.6649488}",
        "infos": "`RIGBEAUTY Hair & Cosmetics, <br> Baseler Straße 46, 60329 Frankfurt am Main <br> Phone: 069 27220778`"
    },
    {
        "name": "GT World Of Beauty GmbH Frankfurt",
        "city": "Frankfurt am Main",
        "zipCode": "60329",
        "coords": "{lat: 50.1083749, lng: 8.6640864}",
        "infos": "`GT World Of Beauty GmbH Frankfurt, <br> Am Hauptbahnhof 16, 60329 Frankfurt am Main <br> Phone: 069 24278737`"
    },
    {
        "name": "Las Bonitas, Salon de Belleza, Afro hair salon, Nagelstudio",
        "city": "Frankfurt am Main",
        "zipCode": "60329",
        "coords": "{lat: 50.1083201, lng: 8.6675109}",
        "infos": "`Las Bonitas, Salon de Belleza, <br> Afro hair salon, Nagelstudio, <br> Kaiserstraße 60, 60329 Frankfurt am Main <br> Phone: 069 36707610`"
    },
    {
        "name": "V.I.P. HAIR AND COSMETICS e.K.",
        "city": "Frankfurt am Main",
        "zipCode": "60329",
        "coords": "{lat: 50.1083119, lng: 8.6630146}",
        "infos": "`V.I.P. HAIR AND COSMETICS e.K., <br> Düsseldorfer Straße 12, 60329 Frankfurt am Main <br> Phone: 01521 2830094`"
    },
    {
        "name": "Kaneshie African Shop",
        "city": "Frankfurt am Main",
        "zipCode": "60329",
        "coords": "{lat: 50.1092692, lng: 8.6646385}",
        "infos": "`Kaneshie African Shop, <br> Moselstraße 51, 60329 Frankfurt am Main <br> Phone: 069 29728585`"
    },
    {
        "name": "African Shop",
        "city": "Frankfurt am Main",
        "zipCode": "60329",
        "coords": "{lat: 50.1058578, lng: 8.665618}",
        "infos": "`African Shop, <br> Wiesenhüttenstraße 39, 60329 Frankfurt am Main <br> Phone: 069 26010327`"
    },
    {
        "name": "African Bazaar",
        "city": "Frankfurt am Main",
        "zipCode": "60329",
        "coords": "{lat: 50.1092692, lng: 8.6587665}",
        "infos": "`African Bazaar, <br> Mainzer Landstraße 107, 60329 Frankfurt am Main <br> Phone: 069 259488`"
    },
    {
        "name": "African Shop. Chimafro",
        "city": "Frankfurt am Main",
        "zipCode": "60311",
        "coords": "{lat: 50.1129944, lng: 8.6924993}",
        "infos": "`African Shop. Chimafro, <br> Battonnstraße 5, 60311 Frankfurt am Main <br> Phone: 069 15340968`"
    },
    {
        "name": "Black Hair Saloon",
        "city": "Frankfurt am Main",
        "zipCode": "60327",
        "coords": "{lat: 50.1027806, lng: 8.6622099}",
        "infos": "`Black Hair Saloon, <br>Gutleutstraße 127, 60327 Frankfurt am Main <br> Phone: 069 251917`"
    },
    {
        "name": "BZ Beauty Zone Inh. Tinsaeberhan Garza",
        "city": "Frankfurt am Main",
        "zipCode": "60329",
        "coords": "{lat: 50.1089833, lng: 8.6620971}",
        "infos": "`BZ Beauty Zone Inh. Tinsaeberhan Garza, <br> Düsseldorfer Straße 14, 60329 Frankfurt am Main <br> Phone: 069 24277711`"
    },
    {
        "name": "Bob's Hair Base",
        "city": "Frankfurt am Main",
        "zipCode": "60327",
        "coords": "{lat: 50.1083652, lng: 8.6572884}",
        "infos": "`Bob's Hair Base, <br> Mainzer Landstraße 114, 60327 Frankfurt am Main <br> Phone: 069 74745805`"
    },
    {
        "name": "T.k. Asia Afro Supermarket / Yazhakam",
        "city": "Frankfurt am Main",
        "zipCode": "65929",
        "coords": "{lat: 50.1011531, lng: 8.5476359}",
        "infos": "`T.k. Asia Afro Supermarket / Yazhakam, <br> Emmerich-Josef-Straße 27, 65929 Frankfurt am Main <br> Phone: 01521 6171713`"
    },
    {
        "name": "Chriskes Afro Shop",
        "city": "Wiesbaden",
        "zipCode": "65185",
        "coords": "{lat: 50.0777863, lng: 8.2358056}",
        "infos": "`Chriskes Afro Shop, <br> Rheinstraße 69, 65185 Wiesbaden <br> Phone: 0611 18171740`"
    },
    {
        "name": "Afro-Shop Si.",
        "city": "Worms",
        "zipCode": "67547",
        "coords": "{lat: 49.6360623, lng: 8.3643195}",
        "infos": "`Afro-Shop Si., <br> Mainzer Straße 11, 67547 Worms <br> Phone: 01521 4369849`"
    },
    {
        "name": "Black and White international Haircosmeticstudio",
        "city": "Wiesbaden",
        "zipCode": "65187",
        "coords": "{lat: 50.0736572, lng: 8.231152}",
        "infos": "`Black and White international Haircosmeticstudio, <br> Schiersteiner Straße 20, 65187 Wiesbaden <br> Phone:0611 9889686`"
    },
    {
        "name": "Afro Hair Braiding Mainz",
        "city": "Mainz",
        "zipCode": "55116",
        "coords": "{lat: 49.9959172, lng: 8.2674964}",
        "infos": "`Afro Hair Braiding Mainz, <br> Gaustraße 37, 55116 Mainz <br> Phone: 01521 8126168`"
    },
    {
        "name": "NHYIRA AFRO-SHOP",
        "city": "Kaiserslautern",
        "zipCode": "67655",
        "coords": "{lat: 49.4469285, lng: 7.7792025}",
        "infos": "`NHYIRA AFRO-SHOP, <br> Mannheimer Straße 25, 67655 Kaiserslautern <br> Phone: 01521 5007734`"
    },
    {
        "name": "PD&T African Shop",
        "city": "Kaiserslautern",
        "zipCode": "67655",
        "coords": "{lat: 49.4384587, lng: 7.7676971}",
        "infos": "`PD&T African Shop, <br> Richard-Wagner-Straße 77, 67655 Kaiserslautern <br> Phone: 0631 41287178`"
    },
    {
        "name": "Michi & Maxi Hair Cosmetics",
        "city": "Kaiserslautern",
        "zipCode": "67655",
        "coords": "{lat: 49.4412679, lng: 7.7657944}",
        "infos": "`Michi & Maxi Hair Cosmetics, <br> Richard-Wagner-Straße 44, 67655 Kaiserslautern <br> Phone: 0176 32468623`"
    },
    {
        "name": "Gye Nyame Afro Shop Saarbrücken",
        "city": "Saarbrücken",
        "zipCode": "66115",
        "coords": "{lat: 49.2408195, lng: 6.9796765}",
        "infos": "`Gye Nyame Afro Shop Saarbrücken, <br> Klausenerstraße 20, 66115 Saarbrücken <br> Phone: 0681 93556245`"
    },
    {
        "name": "Afro Shop Iman",
        "city": "Saarbrücken",
        "zipCode": "66117",
        "coords": "{lat: 49.2312721, lng: 6.9877274}",
        "infos": "`Afro Shop Iman, <br> Vorstadtstraße 33, 66117 Saarbrücken <br> Phone: 0681 9703917`"
    },
    {
        "name": "Afro Shop Tropicana, Yorongar Danmbaye",
        "city": "Saarbrücken",
        "zipCode": "66111",
        "coords": "{lat: 49.2347365, lng: 6.9928803}",
        "infos": "`Afro Shop Tropicana, Yorongar Danmbaye, <br> Berliner Promenade 17, 66111 Saarbrücken <br> Phone: 0681 37996148`"
    },
    {
        "name": "Lina's Afroshop",
        "city": "Saarbrücken",
        "zipCode": "66111",
        "coords": "{lat: 49.2379186, lng: 6.998692}",
        "infos": "`Lina's Afroshop, <br> Richard-Wagner-Straße 58-60, 66111 Saarbrücken <br> Phone: 0681 32549384`"
    },
    {
        "name": "Makola AfroShop",
        "city": "Saarbrücken",
        "zipCode": "66113",
        "coords": "{lat: 49.2438987, lng: 6.970868}",
        "infos": "`Makola AfroShop, <br> Lebacher Straße 45, 66113 Saarbrücken <br> Phone: 0681 68615381`"
    },
    {
        "name": "nana afro-friseur&beauty salon",
        "city": "Saarbrücken",
        "zipCode": "66111",
        "coords": "{lat: 49.2347365, lng: 6.9928803}",
        "infos": "`nana afro-friseur&beauty salon, <br> Berliner Promenade 17, 66111 Saarbrücken <br> Phone: 0176 72804073`"
    },
    {
        "name": "Aro Afro Shop",
        "city": "Trier",
        "zipCode": "54292",
        "coords": "{lat: 49.7583272, lng: 6.6500277}",
        "infos": "`Aro Afro Shop, <br> Roonstraße 8, 54292 Trier <br> Phone: 0651 99473609`"
    },
    {
        "name": "AFRICAN ARTS AND COSMETICS",
        "city": "Koblenz",
        "zipCode": "56068",
        "coords": "{lat: 50.3562221, lng: 7.5944321}",
        "infos": "`AFRICAN ARTS AND COSMETICS, <br> Stegemannstraße 32-38, 56068 Koblenz <br> Phone: 0261 14113`"
    },
    {
        "name": "Afromania Beauty Shop Koblenz",
        "city": "Koblenz",
        "zipCode": "56068",
        "coords": "{lat: 50.360656, lng: 7.5934823}",
        "infos": "`Afromania Beauty Shop Koblenz, <br> Altengraben 16, 56068 Koblenz <br> Phone: 0261 13358444`"
    },
    {
        "name": "All Nation Afro Asia Market - Afrikanisch-asiatische Lebensmittel und mehr",
        "city": "Koblenz",
        "zipCode": "56070",
        "coords": "{lat: 50.3724474, lng: 7.5968521}",
        "infos": "`All Nation Afro Asia Market - <br> Afrikanisch-asiatische Lebensmittel und mehr, <br> Mayer-Alberti-Straße 25, 56070 Koblenz <br> Phone: 0261 87670757`"
    },
    {
        "name": "Asian Afro Shop",
        "city": "Bonn",
        "zipCode": "53111",
        "coords": "{lat: 50.7388588, lng: 7.1008211}",
        "infos": "`Asian Afro Shop, <br> Kölnstraße 24A, 53111 Bonn <br> Phone: 0228 694343`"
    },
    {
        "name": "AFROSHOP COLOGNE",
        "city": "Cologne",
        "zipCode": "66111",
        "coords": "{lat: 50.9300389, lng: 7.0399973}",
        "infos": "`AFROSHOP COLOGNE, <br> Frankfurter Straße 702, 51107 Cologne <br> Phone: 0221 16847591`"
    },
    {
        "name": "Ceforafrica - Afroshop",
        "city": "Cologne",
        "zipCode": "50674",
        "coords": "{lat: 50.9282843, lng: 6.9405105}",
        "infos": "`Ceforafrica - Afroshop, <br> Luxemburger Straße 18, 50674 Cologne <br> Phone: 0221 4249516`"
    },
    {
        "name": "Margret Afro Hairdressing and Afroshop",
        "city": "Cologne",
        "zipCode": "51065",
        "coords": "{lat: 50.9574939, lng: 7.0107213}",
        "infos": "`Margret Afro Hairdressing and Afroshop, <br> Frankfurter Straße 76, 51065 Cologne <br> Phone: 0221 26137321`"
    },
    {
        "name": "Afro Cosmetic Shop",
        "city": "Cologne",
        "zipCode": "50823",
        "coords": "{lat: 50.9527583, lng: 6.9245755}",
        "infos": "`Afro Cosmetic Shop, <br> Overbeckstraße 5, 50823 Cologne <br> Phone: 0221 5504444`"
    },
    {
        "name": "Black and White Noble Hair Style",
        "city": "Cologne",
        "zipCode": "51107",
        "coords": "{lat: 50.9300389, lng: 7.0399973}",
        "infos": "`Black and White Noble Hair Style, <br> Frankfurter Straße 702, 51107 Cologne <br> Phone: 0221 16847591`"
    },
    {
        "name": "Afro-Friseur Salon Kathy Köln",
        "city": "Cologne",
        "zipCode": "51065",
        "coords": "{lat: 50.9577321, lng: 7.0115119}",
        "infos": "`Afro-Friseur Salon Kathy Köln, <br> Montanusstraße 1, 51065 Cologne <br> Phone: 0221 22205852`"
    },
    {
        "name": "Asian & Afroshop Lebensmittel",
        "city": "Cologne",
        "zipCode": "50674",
        "coords": "{lat: 50.9301026, lng: 6.940793}",
        "infos": "`Asian & Afroshop Lebensmittel, <br> Hohenstaufenring 15, 50674 Cologne <br> Phone: 0221 8012754`"
    },
    {
        "name": "Afro Shop",
        "city": "Cologne",
        "zipCode": "50823",
        "coords": "{lat: 50.9520437, lng: 6.9203762}",
        "infos": "`Afro Shop, <br> Hüttenstraße 23, 50823 Cologne <br> Phone: 0221 58982280`"
    },
    {
        "name": "Zadoo Afro Hair Shop",
        "city": "Cologne",
        "zipCode": "50667",
        "coords": "{lat: 50.9387987, lng: 6.9502679}",
        "infos": "`Zadoo Afro Hair Shop, <br> Breite Straße 83, 50667 Cologne <br> Phone: 015755781711`"
    },
    {
        "name": "Afro-Kosmetik-Megitta Luvivila Domingos",
        "city": "Cologne",
        "zipCode": "50823",
        "coords": "{lat: 50.9524334, lng: 6.9192983}",
        "infos": "`Afro-Kosmetik-Megitta Luvivila Domingos, <br> Ehrenfeldgürtel 104, 50823 Cologne <br> Phone: 01577 8980287`"
    },
    {
        "name": "GT World Of Beauty GmbH Köln",
        "city": "Cologne",
        "zipCode": "50676",
        "coords": "{lat: 50.9349201, lng: 6.9417228}",
        "infos": "`GT World Of Beauty GmbH Köln, <br> Schaafenstraße 27-33, 50676 Cologne <br> Phone: 0221 31090380`"
    },
    {
        "name": "Becky's Afro Markt",
        "city": "Cologne",
        "zipCode": "50676",
        "coords": "{lat: 50.9350369, lng: 6.9474418}",
        "infos": "`Becky's afro Markt, <br> Lungengasse 24, 50676 Cologne <br> Phone: 0221 7162341`"
    },
    {
        "name": "Black and White Noble Hair Style",
        "city": "Cologne",
        "zipCode": "51107",
        "coords": "{lat: 50.9300389, lng: 7.0399973}",
        "infos": "`Black and White Noble Hair Style, <br> Frankfurter Straße 702, 51107 Cologne <br> Phone: 0221 16847591`"
    },
    {
        "name": "Simna Esso Afroshop",
        "city": "Cologne",
        "zipCode": "51103",
        "coords": "{lat: 50.9398638, lng: 7.0077649}",
        "infos": "`Simna Esso Afroshop, <br> Steprathstraße 18, 51103 Cologne`"
    },
    {
        "name": "Afro Shop Fouta",
        "city": "Düsseldorf",
        "zipCode": "40227",
        "coords": "{lat: 51.2179271, lng: 6.7965653}",
        "infos": "`Afro Shop Fouta, <br> Heinz-Schmöle-Straße 8, 40227 Düsseldorf`"
    },
    {
        "name": "Naana's Beauty Salon",
        "city": "Düsseldorf",
        "zipCode": "40215",
        "coords": "{lat: 51.2186844, lng: 6.7801537}",
        "infos": "`Naana's Beauty Salon, <br> Hüttenstraße 1, 40215 Düsseldorf <br> Phone: 0211 73564200`"
    },
    {
        "name": "Fatou Hair",
        "city": "Düsseldorf",
        "zipCode": "40210",
        "coords": "{lat: 51.2244665, lng: 6.7877103}",
        "infos": "`Fatou Hair, <br> Oststraße 63, 40210 Düsseldorf <br> Phone: 0211 6029918`"
    },
    {
        "name": "Hairshop American",
        "city": "Düsseldorf",
        "zipCode": "40211",
        "coords": "{lat: 51.2265776, lng: 6.7940366}",
        "infos": "`Hairshop American, <br> Schützenstraße 71, 40211 Düsseldorf`"
    },
    {
        "name": "Ghana House",
        "city": "Düsseldorf",
        "zipCode": "40211",
        "coords": "{lat: 51.2258821, lng: 6.7940086}",
        "infos": "`Ghana House, <br> Kölner Straße 43A, 40211 Düsseldorf <br> Phone: 0174 7466005`"
    },
    {
        "name": "CAROLINE HAIR & BEAUTY / AFROSHOP",
        "city": "Düsseldorf",
        "zipCode": "40227",
        "coords": "{lat: 51.2130628, lng: 6.8060571}",
        "infos": "`CAROLINE HAIR & BEAUTY / AFROSHOP, <br> Ellerstraße 221, 40227 Düsseldorf <br> Phone: 01525 6265347`"
    },
    {
        "name": "D-TOWN SALON",
        "city": "Düsseldorf",
        "zipCode": "40211",
        "coords": "{lat: 51.2253453, lng: 6.7951811}",
        "infos": "`D-TOWN SALON, <br> Kölner Straße 50, 40211 Düsseldorf`"
    },
    {
        "name": "Friseur La Beauté - Inh. Aimee Bimai",
        "city": "Düsseldorf",
        "zipCode": "40211",
        "coords": "{lat: 51.2259281, lng: 6.796124}",
        "infos": "`Friseur La Beauté - Inh. Aimee Bimai, <br> Worringer Straße 67, 40211 Düsseldorf <br> Phone: 0211 93653370`"
    },
    {
        "name": "Afro Shop Shere Punjab",
        "city": "Düsseldorf",
        "zipCode": "40211",
        "coords": "{lat: 51.225399, lng: 6.7943852}",
        "infos": "`Afro Shop Shere Punjab, <br> Karl-Anton-Straße 35, 40211 Düsseldorf <br> Phone: 0172 2728232`"
    },
    {
        "name": "Shirleys Hair",
        "city": "Düsseldorf",
        "zipCode": "40215",
        "coords": "{lat: 51.2110154, lng: 6.7818544}",
        "infos": "`Shirleys Hair, <br> Bilker Allee 222, 40215 Düsseldorf <br> Phone: 0211 24459336`"
    },
    {
        "name": "Market Circle",
        "city": "Düsseldorf",
        "zipCode": "40215",
        "coords": "{lat: 51.2120019, lng: 6.7824255}",
        "infos": "`Market Circle, <br> Corneliusstraße 91, 40215 Düsseldorf <br> Phone: 0211 9336748`"
    },
    {
        "name": "Majolie Afroshop",
        "city": "Mönchengladbach",
        "zipCode": "41061",
        "coords": "{lat: 51.1973609, lng: 6.4425499}",
        "infos": "`Majolie Afroshop, <br> Sittardstraße 21, 41061 Mönchengladbach <br> Phone: 0163 7888800`"
    },
    {
        "name": "Cheick Maria Afro Shop Cosmetic",
        "city": "Mönchengladbach",
        "zipCode": "41061",
        "coords": "{lat: 51.1933436, lng: 6.4420898}",
        "infos": "`Cheick Maria Afro Shop Cosmetic, <br> Lüpertzender Straße 149, 41061 Mönchengladbach <br> Phone: 01575 64888870`"
    },
    {
        "name": "Ceeq Cash And Carry",
        "city": "Mönchengladbach",
        "zipCode": "41061",
        "coords": "{lat: 51.1978654, lng: 6.4442835}",
        "infos": "`Ceeq Cash And Carry, <br> Hindenburgstraße 201, 41061 Mönchengladbach <br> Phone: 01515 5685555`"
    },
    {
        "name": "Beauty Afroshop",
        "city": "Duisburg",
        "zipCode": "47051",
        "coords": "{lat: 51.431646, lng: 6.7596327}",
        "infos": "`Beauty Afroshop, <br> Sonnenwall 62, 47051 Duisburg <br> Phone: 0176 72206808`"
    },
    {
        "name": "Justice International Afroshop",
        "city": "Duisburg",
        "zipCode": "47053",
        "coords": "{lat: 51.4234703, lng: 6.7549113}",
        "infos": "`Justice International Afroshop, <br> Heerstraße 119, 47053 Duisburg <br> Phone: 0203 7398092`"
    },
    {
        "name": "Afrobeauty",
        "city": "Duisburg",
        "zipCode": "41061",
        "coords": "{lat: 51.4237884, lng: 6.7549377}",
        "infos": "`Afrobeauty, <br> Heerstraße 111, 47053 Duisburg <br> Phone: 0203 6080236`"
    },
    {
        "name": "Pretty Hair Shop",
        "city": "Duisburg",
        "zipCode": "47166",
        "coords": "{lat: 51.4895623, lng: 6.7754329}",
        "infos": "`Pretty Hair Shop, <br> Alleestraße 52, 47166 Duisburg <br> Phone: 0203 9905327`"
    },
    {
        "name": "Cori's Afro Look",
        "city": "Duisburg",
        "zipCode": "47057",
        "coords": "{lat: 51.4285737, lng: 6.7785035}",
        "infos": "`Cori's Afro Look, <br> Neudorfer Straße 67, 47057 Duisburg`"
    },
    {
        "name": "Mass Beauty",
        "city": "Duisburg",
        "zipCode": "47137",
        "coords": "{lat: 51.4660012, lng: 6.7724759}",
        "infos": "`Mass Beauty, <br> Biesenstraße 2, 47137 Duisburg <br> Phone: 0163 1567982`"
    },
    {
        "name": "G&T Afro Beauty",
        "city": "Duisburg",
        "zipCode": "47057",
        "coords": "{lat: 51.4239883, lng: 6.7819487}",
        "infos": "`G&T Afro Beauty, <br> Neudorfer Straße 181, 47057 Duisburg`"
    },
    {
        "name": "Top Style Afro Salon",
        "city": "Oberhausen",
        "zipCode": "46045",
        "coords": "{lat: 51.4668848, lng: 6.8585549}",
        "infos": "`Top Style Afro Salon, <br> Hermann-Albertz-Straße 174, 46045 Oberhausen <br> Phone: 01521 0170392`"
    },
    {
        "name": "Ebony-Afro-Shop",
        "city": "Oberhausen",
        "zipCode": "46045",
        "coords": "{lat: 51.4710159, lng: 6.858026}",
        "infos": "`Ebony-Afro-Shop, <br> Nohlstraße 16, 46045 Oberhausen <br> Phone: 0208 22931`"
    },
    {
        "name": "Corine Afrolook",
        "city": "Duisburg",
        "zipCode": "47057",
        "coords": "{lat: 51.4285737, lng: 6.7785035}",
        "infos": "`Corine Afrolook, <br> Neudorfer Straße 67, 47057 Duisburg <br> Phone: 01521 7141431`"
    },
    {
        "name": "Black & White",
        "city": "Oberhausen",
        "zipCode": "46045",
        "coords": "{lat: 51.4699844, lng: 6.8491414}",
        "infos": "`Black & White, <br> Friedrich-Karl-Straße 52, 46045 Oberhausen <br> Phone: 0208 855590`"
    },
    {
        "name": "Tripple T Afro Shop",
        "city": "Duisburg",
        "zipCode": "47051",
        "coords": "{lat: 51.4327009, lng: 6.7586323}",
        "infos": "`Tripple T Afro Shop, <br> Beekstraße 54, 47051 Duisburg <br> Phone: 0174 2592504`"
    },
    {
        "name": "Afro Beauty Shop Haarverlängerung",
        "city": "Esse",
        "zipCode": "45127",
        "coords": "{lat: 51.4527065, lng: 7.0144978}",
        "infos": "`Afro Beauty Shop Haarverlängerung, <br> Am Handelshof 1, 45127 Essen <br> Phone: 0201 239182`"
    },
    {
        "name": "Bigi - Mama Afroshop",
        "city": "Duisburg",
        "zipCode": "47051",
        "coords": "{lat: 51.431079, lng: 6.767715}",
        "infos": "`Bigi - Mama Afroshop, <br> Friedrich-Wilhelm-Straße 61, 47051 Duisburg`"
    },
    {
        "name": "Afro-Europashop New World",
        "city": "Wuppertal",
        "zipCode": "42105",
        "coords": "{lat: 51.2606742, lng: 7.1432768}",
        "infos": "`Afro-Europashop New World, <br> Hochstraße 88, 42105 Wuppertal <br> Phone: 0202 39320257`"
    },
    {
        "name": "Ginas Hair & Beauty",
        "city": "Wuppertal",
        "zipCode": "42103",
        "coords": "{lat: 51.2583499, lng: 7.1438996}",
        "infos": "`Ginas Hair & Beauty, <br> Grünstraße 6, 42103 Wuppertal <br> Phone: 0202 8704789`"
    },
    {
        "name": "Grace Afro-Hairdressing Salon",
        "city": "Wuppertal",
        "zipCode": "42119",
        "coords": "{lat: 51.2435295, lng: 7.1435106}",
        "infos": "`Grace Afro-Hairdressing Salon, <br> Cronenberger Straße 54, 42119 Wuppertal <br> Phone: 01521 8673227`"
    },
    {
        "name": "Viva Asia African Supermarket",
        "city": "Wuppertal",
        "zipCode": "42107",
        "coords": "{lat: 51.2632616, lng: 7.1479519}",
        "infos": "`Viva Asia African Supermarket, <br> Gathe 35, 42107 Wuppertal <br> Phone: 0202 7595152`"
    },
    {
        "name": "Grace Beauty and Food Store",
        "city": "Wuppertal",
        "zipCode": "42275",
        "coords": "{lat: 51.2730442, lng: 7.2051263}",
        "infos": "`Grace Beauty and Food Store, <br> Kleiner Werth 10, 42275 Wuppertal <br> Phone: 0202 51495736`"
    },
    {
        "name": "Dora Hairstyle Afro",
        "city": "Wuppertal",
        "zipCode": "42283",
        "coords": "{lat: 51.2667257, lng: 7.1899681}",
        "infos": "`Dora Hairstyle Afro, <br> Friedrich-Engels-Allee, 42283 Wuppertal <br> Phone: 0202 7259021`"
    },
    {
        "name": "African Market-Wuppertal Afro-Caribbean Food",
        "city": "Wuppertal",
        "zipCode": "42119",
        "coords": "{lat: 51.2509661, lng: 7.1481054}",
        "infos": "`African Market-Wuppertal Afro-Caribbean Food, <br> Weststraße 64, 42119 Wuppertal`"
    },
    {
        "name": "Barry Afro & Asia Market",
        "city": "Wuppertal",
        "zipCode": "42275",
        "coords": "{lat: 51.2698825, lng: 7.1992251}",
        "infos": "`Barry Afro & Asia Market, <br> Höhne 16, 42275 Wuppertal <br> Phone: 0202 75882770`"
    },
    {
        "name": "Modern African Salon",
        "city": "Essen",
        "zipCode": "45127",
        "coords": "{lat: 51.4563836, lng: 7.0076871}",
        "infos": "`Modern African Salon, <br> Lindenallee 76, 45127 Essen <br> Phone: 0201 2438155`"
    },
    {
        "name": "Pink Afro-Beauty-Palace - Haarverlängerung",
        "city": "Essen",
        "zipCode": "45127",
        "coords": "{lat: 51.4516593, lng: 7.0118328}",
        "infos": "`Pink Afro-Beauty-Palace - Haarverlängerung, <br> Hachestraße 19, 45127 Essen <br> Phone: 0201 28816225`"
    },
    {
        "name": "Coco Afro Salon Haarverlängerung und Nägelstudio",
        "city": "Essen",
        "zipCode": "45127",
        "coords": "{lat: 51.4582438, lng: 7.0132513}",
        "infos": "`Coco Afro Salon Haarverlängerung und Nägelstudio, <br> Viehofer Straße 8, 45127 Essen <br> Phone: 01521 9407913`"
    },
    {
        "name": "Afro Beauty Aicha Hair",
        "city": "Essen",
        "zipCode": "45127",
        "coords": "{lat: 51.4600591, lng: 6.9800314}",
        "infos": "`Afro Beauty Aicha Hair, <br> Oberdorfstraße 5, 45143 Essen <br> Phone: 01575 0144868`"
    },
    {
        "name": "Afro Hair Palace by NK Choice",
        "city": "Essen",
        "zipCode": "45127",
        "coords": "{lat: 51.4590882, lng: 7.011721}",
        "infos": "`Afro Hair Palace by NK Choice, <br> Kreuzeskirchstraße 11, 45127 Essen <br> Phone: 01521 0583317`"
    },
    {
        "name": "Afro-Center 786",
        "city": "Essen",
        "zipCode": "45127",
        "coords": "{lat: 51.4626244, lng: 7.0155583}",
        "infos": "`Afro-Center 786, <br> Schützenbahn 51, 45127 Essen <br> Phone: 0201 221273`"
    },
    {
        "name": "LadyGold's Afro & American Shop e.K.",
        "city": "Essen",
        "zipCode": "45138",
        "coords": "{lat: 51.4514314, lng: 7.0315641}",
        "infos": "`LadyGold's Afro & American Shop e.K., <br> Markgrafenstraße 12, 45138 Essen <br> Phone: 01521 0118381`"
    },
    {
        "name": "Keyla Fashion Afro Latino Salon",
        "city": "Essen",
        "zipCode": "45127",
        "coords": "{lat: 51.4594728, lng: 7.0154471}",
        "infos": "`Keyla Fashion Afro Latino Salon, <br> Ribbeckstraße 48, 45127 Essen <br> Phone: 0162 2653701`"
    },
    {
        "name": "Queens Afro American",
        "city": "Essen",
        "zipCode": "45138",
        "coords": "{lat: 51.4514314, lng: 7.0315641}",
        "infos": "`Queens Afro American, <br> Markgrafenstraße 12, 45138 Essen`"
    },




]